City_ID,City,Cloudiness,Country,Date,Humidity,Lat,Lng,Max Temp,Wind Speed
0,albany,75,US,1518558840,33,42.65,-73.75,30.2,3.36
1,rikitea,76,PF,1518560234,97,-23.12,-134.97,81.04,16.58
2,palmer,40,AU,1518557400,64,-34.85,139.16,68.0,19.46
3,butaritari,80,KI,1518560249,96,3.07,172.79,83.56,24.63
4,moron,40,VE,1518559200,54,10.49,-68.2,82.4,7.2
5,chuy,0,UY,1518560472,68,-33.69,-53.46,71.54,8.75
6,punta arenas,90,CL,1518555600,87,-53.16,-70.91,53.6,10.29
7,namatanai,36,PG,1518560890,100,-3.66,152.44,81.26,13.0
8,redmond,1,US,1518559080,42,47.67,-122.12,50.0,3.27
9,tonstad,75,NO,1518558600,80,58.66,6.71,39.2,19.46
10,price,90,US,1518558780,77,39.6,-110.81,41.0,4.7
11,vila franca do campo,40,PT,1518559200,93,37.72,-25.43,62.6,11.41
12,hamilton,75,BM,1518558900,83,32.3,-64.78,69.8,6.93
13,kilimatinde,0,TZ,1518561083,65,-5.75,34.82,68.25,8.43
14,carnarvon,88,ZA,1518560315,80,-30.97,22.13,63.49,3.94
15,daru,76,SL,1518561084,49,7.99,-10.85,85.94,7.76
16,lecce,20,IT,1518558600,76,40.36,18.17,48.2,18.34
17,yeppoon,20,AU,1518557400,74,-23.13,150.74,82.4,10.29
18,severo-kurilsk,48,RU,1518560244,100,50.68,156.12,22.49,16.35
19,mango,75,IT,1518558600,86,44.69,8.15,39.2,6.93
20,busselton,0,AU,1518560002,100,-33.64,115.35,61.42,12.44
21,san patricio,0,PY,1518560426,41,-26.98,-56.83,84.1,5.39
22,saint george,75,GR,1518558600,66,39.45,22.34,53.6,9.17
23,moose factory,90,CA,1518559740,62,51.26,-80.61,23.0,31.09
24,ternovka,92,RU,1518561087,88,51.69,41.59,13.31,11.01
25,samarai,12,PG,1518560952,100,-10.62,150.67,80.09,9.64
26,kaitangata,8,NZ,1518560267,84,-46.28,169.85,59.93,7.18
27,mar del plata,0,AR,1518560286,21,-46.43,-67.52,84.64,21.94
28,caravelas,44,BR,1518560596,100,-17.73,-39.27,80.68,13.67
29,sann,0,PK,1518559200,82,26.04,68.14,57.2,10.67
30,ushuaia,75,AR,1518555600,87,-54.81,-68.31,55.4,10.29
31,barrow,0,AR,1518560333,22,-38.31,-60.23,84.73,7.96
32,vaini,0,IN,1518560248,64,15.34,74.49,63.26,4.83
33,qaanaaq,12,GL,1518560271,85,77.48,-69.36,-20.26,4.16
34,flinders,12,AU,1518555600,88,-34.58,150.85,71.6,1.12
35,coihaique,0,CL,1518559200,32,-45.58,-72.07,73.4,11.41
36,norman wells,90,CA,1518559200,77,65.28,-126.83,1.4,3.36
37,bambous virieux,40,MU,1518559200,88,-20.34,57.76,78.8,5.84
38,mataura,12,NZ,1518560238,82,-46.19,168.86,59.8,4.05
39,neuquen,0,AR,1518555600,15,-38.95,-68.06,93.2,11.41
40,bluff,0,AU,1518560239,91,-23.58,149.07,76.49,9.98
41,sarangani,92,PH,1518561091,100,5.4,125.46,78.29,2.95
42,trelew,0,AR,1518561041,20,-43.25,-65.31,82.47,11.23
43,leningradskiy,56,RU,1518560430,84,69.38,178.42,9.22,16.69
44,port hardy,90,CA,1518559200,86,50.7,-127.42,41.0,8.05
45,puerto ayora,40,EC,1518555600,55,-0.74,-90.35,87.8,18.34
46,hobart,75,AU,1518557400,63,-42.88,147.33,62.6,12.75
47,ambilobe,0,MG,1518561092,100,-13.19,49.05,70.5,2.84
48,salinopolis,92,BR,1518560686,100,-0.61,-47.36,77.48,7.4
49,vostok,48,RU,1518560347,73,46.45,135.83,-0.82,4.94
50,ribeira grande,40,PT,1518555600,88,38.52,-28.7,62.6,16.11
51,port alfred,92,ZA,1518560303,95,-33.59,26.89,71.32,16.35
52,kroya,80,ID,1518560528,97,-6.5,108.06,72.31,3.38
53,omsukchan,88,RU,1518561094,80,62.53,155.8,3.86,11.68
54,saint-augustin,80,FR,1518559200,93,44.83,-0.61,46.4,3.36
55,santa vitoria do palmar,0,BR,1518561095,77,-33.52,-53.37,61.91,7.99
56,marsh harbour,0,BS,1518560075,95,26.54,-77.06,76.58,14.34
57,port augusta,0,AU,1518559200,68,-32.49,137.76,71.6,11.41
58,turayf,0,SA,1518555600,93,31.68,38.65,42.8,4.7
59,jamestown,0,AU,1518560241,73,-33.21,138.6,60.52,9.75
60,muros,90,ES,1518559200,93,42.77,-9.06,50.0,11.41
61,tuatapere,76,NZ,1518560308,100,-46.13,167.69,55.79,6.73
62,diapaga,0,BF,1518561097,44,12.07,1.79,66.86,3.74
63,sengiley,56,RU,1518559200,84,53.96,48.79,3.2,2.24
64,amahai,68,ID,1518561098,100,-3.31,129.0,82.7,7.65
65,arraial do cabo,40,BR,1518555600,88,-22.97,-42.02,78.8,6.93
66,alice town,44,BS,1518561099,100,25.72,-79.3,75.09,9.66
67,lorengau,88,PG,1518560395,100,-2.02,147.27,79.33,12.44
68,iracoubo,92,GF,1518560615,80,5.48,-53.21,76.99,4.61
69,isangel,90,VU,1518559200,100,-19.55,169.27,78.8,13.87
70,saskylakh,68,RU,1518560280,70,71.97,114.09,-9.91,7.96
71,praia da vitoria,20,PT,1518559200,88,38.73,-27.07,62.6,20.49
72,veraval,90,FR,1518559200,97,49.65,0.71,42.8,8.05
73,placido de castro,48,BR,1518561101,97,-10.34,-67.19,73.97,2.39
74,ceuta,36,MX,1518561101,28,23.9,-106.93,86.12,3.18
75,haines junction,12,CA,1518561102,85,60.75,-137.51,17.81,3.29
76,coos bay,1,US,1518560100,53,43.37,-124.22,51.8,12.75
77,hilo,1,US,1518555360,58,19.71,-155.08,82.4,12.75
78,two rivers,90,US,1518558960,74,44.15,-87.57,30.2,19.46
79,provideniya,90,RU,1518557400,93,64.42,-173.23,32.0,20.13
80,itaituba,20,BR,1518555600,62,-4.26,-55.99,89.6,3.36
81,rio grande,0,BR,1518560834,78,-32.03,-52.1,73.75,11.77
82,naron,20,ES,1518559200,81,43.52,-8.15,53.6,8.05
83,bredasdorp,48,ZA,1518560316,91,-34.53,20.04,70.24,20.49
84,narsaq,36,GL,1518558600,54,60.91,-46.05,5.0,4.7
85,atuona,0,PF,1518560270,100,-9.8,-139.03,80.86,16.8
86,airai,76,TL,1518560449,95,-8.93,125.41,69.11,1.14
87,lebu,0,ET,1518560338,55,8.96,38.73,56.92,8.75
88,qaqortoq,24,GL,1518558600,54,60.72,-46.03,5.0,4.7
89,dikson,76,RU,1518560229,89,73.51,80.55,18.58,6.62
90,vytegra,20,RU,1518561105,75,61.01,36.45,10.25,9.89
91,lufkin,90,US,1518558960,100,31.34,-94.73,46.4,4.7
92,burnie,48,AU,1518561089,100,-41.05,145.91,59.39,33.38
93,ancud,0,CL,1518560506,62,-41.87,-73.83,71.63,2.59
94,mezen,92,RU,1518560914,85,65.85,44.24,21.14,4.16
95,lasa,75,CY,1518559200,63,34.92,32.53,60.8,11.41
96,garissa,0,KE,1518560573,69,-0.46,39.64,80.09,10.2
97,te anau,32,NZ,1518560672,90,-45.41,167.72,51.16,3.71
98,nikolskoye,75,RU,1518557400,73,59.7,30.79,23.0,4.47
99,batsfjord,75,NO,1518558600,85,70.63,29.72,24.8,27.51
100,idritsa,76,RU,1518561108,86,56.33,28.9,18.12,7.09
101,mahebourg,20,MU,1518560334,90,-20.41,57.7,79.42,5.84
102,porto walter,64,BR,1518561109,83,-8.27,-72.74,79.59,3.96
103,quatre cocos,40,MU,1518559200,88,-20.21,57.76,78.8,5.84
104,bandarbeyla,92,SO,1518560671,100,9.49,50.81,74.06,9.08
105,kapaa,75,US,1518555360,83,22.08,-159.32,75.2,9.17
106,poya,80,NC,1518561110,100,-21.35,165.16,75.77,14.47
107,thaton,48,MM,1518561110,100,16.91,97.37,76.89,5.86
108,new norfolk,75,AU,1518557400,63,-42.78,147.06,62.6,12.75
109,san carlos,44,VE,1518560818,33,9.66,-68.59,90.94,6.29
110,san julian,20,SV,1518558600,27,13.7,-89.56,100.4,10.29
111,san miguel de cauri,92,PE,1518561111,100,-10.1,-76.58,43.64,2.28
112,santa cruz,1,US,1518558960,29,36.97,-122.03,66.2,4.7
113,hithadhoo,88,MV,1518560321,100,-0.6,73.08,83.02,7.52
114,yellowknife,75,CA,1518559200,57,62.45,-114.38,-7.61,14.99
115,portland,20,US,1518558960,34,45.52,-122.67,50.0,3.36
116,taoudenni,32,ML,1518561113,19,22.68,-3.98,54.26,10.0
117,vao,88,EE,1518560375,95,59.1,26.19,27.94,6.62
118,lyuban,88,BY,1518561113,90,52.8,28.0,19.47,5.86
119,bonavista,8,CA,1518561114,100,48.65,-53.11,13.8,26.89
120,saldanha,92,PT,1518560365,98,41.42,-6.55,45.26,10.76
121,hermanus,24,ZA,1518560279,82,-34.42,19.24,70.24,3.71
122,berlevag,0,NO,1518558600,73,70.86,29.09,23.0,31.09
123,alanya,8,TR,1518561115,100,36.55,32.0,49.04,4.74
124,avarua,40,CK,1518559200,65,-21.21,-159.78,78.8,9.17
125,ossora,76,RU,1518560829,84,59.24,163.07,16.19,3.71
126,cap malheureux,40,MU,1518559200,88,-19.98,57.61,78.8,8.86
127,sorong,32,ID,1518561069,100,-0.86,131.25,80.49,10.45
128,sisimiut,24,GL,1518560538,47,66.94,-53.67,-30.21,1.03
129,aklavik,5,CA,1518559200,61,68.22,-135.01,-22.01,9.17
130,plettenberg bay,56,ZA,1518561118,90,-34.05,23.37,70.14,17.6
131,chokurdakh,80,RU,1518560259,71,70.62,147.9,-5.86,8.3
132,pravokumskoye,92,RU,1518561118,96,44.77,44.65,23.12,3.85
133,kahului,40,US,1518557100,78,20.89,-156.47,80.6,10.29
134,nakasongola,12,UG,1518561119,65,1.32,32.46,70.28,9.44
135,kamojima,20,JP,1518559200,79,34.07,134.35,28.4,9.17
136,pauini,92,BR,1518560821,100,-7.71,-67.0,73.39,1.7
137,yerbogachen,64,RU,1518560792,75,61.28,108.01,-7.62,5.17
138,nome,90,US,1518558900,93,30.04,-94.42,53.6,6.96
139,leh,44,IN,1518561120,68,34.16,77.58,-15.32,1.83
140,tuktoyaktuk,5,CA,1518559200,67,69.44,-133.03,-25.61,2.24
141,oxford,75,US,1518558960,72,33.61,-85.83,62.6,9.17
142,iqaluit,90,CA,1518559200,67,63.75,-68.52,-25.61,11.41
143,wattegama,36,LK,1518561122,91,7.35,80.68,61.5,2.73
144,san felipe,0,CL,1518559200,36,-32.75,-70.73,80.6,17.22
145,sile,1,US,1518560100,25,35.56,-106.37,59.0,16.11
146,coxim,92,BR,1518561124,87,-18.5,-54.75,76.17,7.2
147,guerrero negro,32,MX,1518560301,57,27.97,-114.04,69.7,6.4
148,kem,0,UG,1518561125,58,2.68,33.77,71.27,9.1
149,toppenish,1,US,1518558780,33,46.38,-120.31,42.8,3.36
150,ostersund,0,SE,1518558600,85,63.18,14.64,19.4,9.17
151,bar harbor,1,US,1518558960,35,44.39,-68.2,23.0,8.43
152,sao filipe,36,CV,1518560280,95,14.9,-24.5,70.19,14.12
153,talnakh,36,RU,1518560665,73,69.49,88.39,-6.31,5.5
154,thompson,90,CA,1518559200,78,55.74,-97.86,14.0,8.05
155,cape town,40,ZA,1518555600,88,-33.93,18.42,69.8,13.87
156,riyadh,24,SA,1518555600,12,24.63,46.72,71.6,4.7
157,porirua,56,NZ,1518559200,68,-41.14,174.84,71.6,12.75
158,viedma,0,AR,1518561128,24,-40.81,-62.99,81.17,13.69
159,upernavik,0,GL,1518560261,100,72.79,-56.15,-4.69,8.75
160,klaksvik,0,FO,1518558600,92,62.23,-6.59,30.2,1.12
161,katsuura,20,JP,1518556800,79,33.93,134.5,28.4,8.05
162,abu samrah,8,SY,1518561129,83,35.3,37.18,48.59,12.01
163,camacha,20,PT,1518559200,67,33.08,-16.33,59.0,8.05
164,zhangye,76,CN,1518560930,70,38.94,100.46,12.28,3.6
165,weihe,56,CN,1518561130,88,32.99,105.33,24.42,2.06
166,yaan,20,NG,1518561131,92,7.38,8.57,73.79,8.1
167,anadyr,75,RU,1518557400,100,64.73,177.51,30.2,17.9
168,kodiak,1,US,1518555180,37,39.95,-94.76,50.0,17.22
169,yulara,90,AU,1518555600,94,-25.24,130.99,73.4,8.05
170,basco,1,US,1518560100,60,40.33,-91.2,39.2,6.93
171,half moon bay,1,US,1518558960,31,37.46,-122.43,64.4,6.93
172,harper,90,US,1518558900,87,30.3,-99.24,57.2,4.83
173,russell,0,AR,1518559200,27,-33.01,-68.8,87.8,5.82
174,tiruchchirappalli,0,IN,1518557400,88,10.82,78.68,73.4,4.7
175,krasnogorskoye,48,RU,1518560670,67,57.7,52.5,-0.69,2.82
176,suifenhe,64,CN,1518561135,64,44.39,131.16,2.82,2.39
177,mount isa,0,AU,1518557400,62,-20.73,139.49,84.2,5.82
178,lahaina,75,US,1518558960,78,20.87,-156.68,80.6,9.17
179,northglenn,1,US,1518560040,19,39.91,-104.99,60.8,16.11
180,sitka,12,US,1518560427,34,37.17,-99.65,58.76,16.35
181,kruisfontein,64,ZA,1518560609,86,-34.0,24.73,67.63,16.02
182,port-cartier,20,CA,1518559200,49,50.03,-66.88,-0.41,2.24
183,longyearbyen,40,NO,1518558600,73,78.22,15.63,21.2,13.87
184,miramar,0,CR,1518559200,47,10.09,-84.73,78.8,25.28
185,belaya gora,76,RU,1518561138,65,68.54,146.19,-14.46,7.2
186,laguna,90,MX,1518554700,33,27.52,-110.01,75.2,5.82
187,hami,88,CN,1518560252,82,42.84,93.51,19.88,2.59
188,bartica,75,GY,1518559200,88,6.41,-58.62,77.0,9.17
189,iskateley,68,RU,1518561140,93,67.68,53.15,22.4,14.14
190,cherskiy,20,RU,1518560230,70,68.75,161.3,-10.27,5.28
191,kavieng,44,PG,1518560419,100,-2.57,150.8,82.57,9.75
192,yar-sale,76,RU,1518560432,88,66.83,70.83,-0.15,12.33
193,alexandria,90,US,1518560100,77,31.31,-92.44,62.6,3.36
194,southbridge,1,US,1518558960,47,42.08,-72.03,35.6,10.29
195,hatillo,40,PR,1518558600,65,18.49,-66.83,77.0,20.8
196,kungurtug,32,RU,1518561046,45,50.6,97.53,-19.73,1.83
197,constitucion,90,MX,1518558480,23,23.99,-104.67,73.4,9.17
198,ikwiriri,92,TZ,1518561142,91,-7.96,38.99,77.3,2.73
199,stepnogorsk,88,KZ,1518561143,83,52.35,71.88,2.55,6.87
200,east london,92,ZA,1518560369,100,-33.02,27.91,72.53,16.58
201,rawson,8,AR,1518560893,24,-43.3,-65.11,90.13,18.03
202,san vicente,20,SV,1518558600,27,13.64,-88.78,100.4,10.29
203,nadym,64,RU,1518560834,76,65.53,72.51,0.08,9.64
204,bilibino,44,RU,1518561064,69,68.06,166.44,-6.59,3.4
205,khatanga,48,RU,1518560393,81,71.98,102.47,-4.42,9.42
206,nanortalik,0,GL,1518560384,100,60.14,-45.24,18.31,30.22
207,kloulklubed,90,PW,1518558840,94,7.04,134.26,78.8,4.7
208,victoria,75,BN,1518557400,94,5.28,115.24,77.0,3.36
209,luanda,48,AO,1518560938,87,-8.83,13.24,82.03,7.74
210,kristiansund,0,NO,1518558600,47,63.12,7.73,37.4,12.75
211,yagodnoye,76,RU,1518561148,64,62.52,149.63,-6.41,6.2
212,cururupu,88,BR,1518561148,100,-1.82,-44.87,72.84,1.95
213,la ronge,90,CA,1518559200,68,55.1,-105.3,30.2,11.41
214,barra do garcas,20,BR,1518561149,82,-15.89,-52.26,75.23,3.06
215,monkey bay,20,MW,1518561149,100,-14.08,34.91,80.36,7.76
216,mareeba,40,AU,1518557400,78,-16.99,145.42,78.8,6.93
217,sobolevo,76,RU,1518560714,92,54.43,31.9,15.11,10.2
218,aden,0,YE,1518561150,99,12.79,45.03,75.86,17.27
219,trinidad,0,UY,1518555600,26,-33.52,-56.9,82.4,4.38
220,haapiti,75,PF,1518559200,83,-17.57,-149.87,80.6,23.04
221,pokhara,0,NP,1518560982,73,28.21,83.99,38.78,2.71
222,richards bay,76,ZA,1518560510,89,-28.77,32.06,70.24,3.04
223,lichuan,20,CN,1518561152,75,30.3,108.94,24.2,2.17
224,liverpool,0,GB,1518558600,86,53.41,-2.98,35.6,6.93
225,tomatlan,0,MX,1518560742,36,19.93,-105.25,87.88,4.83
226,shingu,0,JP,1518561153,100,33.72,135.99,42.83,6.2
227,jardim,20,BR,1518561154,79,-21.48,-56.15,77.48,7.2
228,sur,12,OM,1518560665,100,22.57,59.53,69.38,10.76
229,port hawkesbury,20,CA,1518559200,66,45.62,-61.36,10.4,8.05
230,grande-synthe,75,FR,1518560400,69,51.01,2.3,35.6,10.29
231,tigil,36,RU,1518561156,86,57.8,158.67,20.55,11.01
232,okhotsk,68,RU,1518560539,100,59.36,143.24,1.61,7.63
233,batagay,0,RU,1518561156,0,67.65,134.64,-42.14,2.84
234,saint-philippe,1,CA,1518559200,57,45.36,-73.48,24.8,3.36
235,nazarovo,20,RU,1518561157,58,56.01,90.42,-12.53,3.18
236,itoman,20,JP,1518558960,86,26.12,127.67,51.8,6.17
237,ust-karsk,8,RU,1518560683,54,52.71,118.82,-12.34,2.37
238,namibe,8,AO,1518561158,100,-15.19,12.15,76.4,14.03
239,takoradi,12,GH,1518560469,100,4.89,-1.75,79.91,6.85
240,fortuna,0,ES,1518559200,50,38.18,-1.13,51.8,5.82
241,mbumi,92,TZ,1518561159,91,-7.91,39.21,77.3,2.73
242,puerto ayacucho,75,CO,1518559200,46,5.66,-67.63,89.6,10.29
243,san carlos de bariloche,0,AR,1518555600,16,-41.13,-71.31,84.2,17.22
244,aswan,0,EG,1518559200,33,24.09,32.9,62.6,10.29
245,ponta do sol,68,BR,1518560265,72,-20.63,-46.0,78.52,1.25
246,mantua,0,IT,1518558900,85,45.16,10.79,33.8,5.82
247,cockburn town,80,TC,1518560300,96,21.46,-71.14,78.34,24.52
248,port elizabeth,90,US,1518558960,59,39.31,-74.98,35.6,8.05
249,mount gambier,32,AU,1518560300,86,-37.83,140.78,57.37,11.32
250,miram shah,44,PK,1518561162,85,33.01,70.07,35.04,2.84
251,vilhena,40,BR,1518559200,83,-12.74,-60.15,77.0,3.36
252,vila velha,75,BR,1518559200,78,-3.71,-38.6,80.6,3.36
253,lagoa,0,PT,1518559200,76,37.14,-8.45,48.2,6.93
254,litovko,0,RU,1518561163,56,49.24,135.18,-1.05,6.87
255,seoul,90,KR,1518558900,64,37.57,126.98,35.6,6.93
256,fukue,20,JP,1518559200,64,35.03,136.69,37.4,17.22
257,mogok,24,MM,1518561164,86,22.92,96.51,53.85,1.72
258,pevek,32,RU,1518560487,100,69.7,170.27,-1.27,2.59
259,svetlogorsk,75,RU,1518557400,91,53.14,59.15,3.2,6.71
260,faanui,100,PF,1518560383,100,-16.48,-151.75,79.73,31.45
261,mandalgovi,0,MN,1518561165,24,45.76,106.27,-19.41,1.16
262,ilulissat,40,GL,1518558600,52,69.22,-51.1,-9.41,9.17
263,sorland,75,NO,1518555000,64,67.67,12.69,35.6,10.29
264,petropavlovsk-kamchatskiy,68,RU,1518557400,49,53.05,158.65,23.0,6.71
265,buraydah,40,SA,1518555600,49,26.33,43.97,69.8,21.92
266,tiksi,44,RU,1518560077,72,71.64,128.87,-10.77,3.38
267,victor harbor,40,AU,1518557400,64,-35.55,138.62,68.0,19.46
268,leonidovo,0,RU,1518561169,78,49.28,142.87,-4.65,3.62
269,pangkalanbuun,32,ID,1518561169,81,-2.68,111.62,76.67,5.53
270,luderitz,0,NA,1518555600,73,-26.65,15.16,69.8,2.24
271,prince rupert,90,CA,1518559380,86,54.32,-130.32,41.0,12.75
272,usvyaty,80,RU,1518561170,91,55.75,30.75,15.38,9.66
273,rio verde de mato grosso,100,BR,1518561171,81,-18.92,-54.84,76.62,7.76
274,skibbereen,75,IE,1518559200,80,51.55,-9.27,39.2,12.75
275,belmonte,92,PT,1518560379,94,40.36,-7.35,43.91,6.4
276,san quintin,20,PH,1518559200,94,17.54,120.52,68.0,4.7
277,mecca,0,SA,1518555600,69,21.43,39.83,78.8,2.24
278,georgetown,75,GY,1518555600,78,6.8,-58.16,78.8,9.17
279,santa,44,PH,1518560938,85,17.49,120.43,62.99,3.04
280,trairi,12,BR,1518560467,100,-3.28,-39.27,79.28,5.73
281,tasiilaq,88,GL,1518558600,86,65.61,-37.64,28.4,27.51
282,college,90,US,1518559080,86,64.86,-147.8,28.4,13.87
283,dzhebariki-khaya,44,RU,1518561174,68,62.22,135.8,-36.2,2.51
284,menzelinsk,0,RU,1518559200,77,55.73,53.11,5.0,4.47
285,kodinsk,76,RU,1518561175,74,58.6,99.18,0.08,3.74
286,billings,20,US,1518558780,47,45.79,-108.5,37.4,21.92
287,saint-pierre,90,FR,1518559200,74,48.95,4.24,33.8,10.29
288,salekhard,88,RU,1518561177,79,66.54,66.62,-4.07,4.74
289,zhigansk,56,RU,1518560793,79,66.77,123.37,-12.57,5.73
290,mitchell,1,US,1518558780,63,43.71,-98.03,30.2,9.17
291,buriti dos lopes,75,BR,1518558300,83,-3.18,-41.87,80.6,5.82
292,sao joao da barra,40,BR,1518555600,69,-21.64,-41.05,82.4,14.99
293,ketchikan,90,US,1518558960,80,55.34,-131.65,42.8,4.7
294,vestmannaeyjar,76,IS,1518560366,99,63.44,-20.27,34.73,16.13
295,faya,0,SA,1518555600,48,18.39,42.45,62.6,3.36
296,torbay,75,CA,1518559200,47,47.66,-52.73,15.8,19.46
297,touros,24,BR,1518560655,88,-5.2,-35.46,80.18,5.73
298,coquimbo,20,CL,1518555600,68,-29.95,-71.34,68.0,11.41
299,tshikapa,32,CD,1518561181,99,-6.42,20.79,72.39,2.39
300,barra do pirai,90,BR,1518559200,94,-22.47,-43.83,78.8,10.29
301,lavrentiya,92,RU,1518560467,98,65.58,-170.99,29.92,27.76
302,hearst,88,CA,1518561183,67,49.69,-83.67,24.83,16.26
303,nemuro,0,JP,1518560290,100,43.32,145.57,24.88,26.19
304,patacamaya,56,BO,1518561183,96,-17.23,-67.92,47.64,3.4
305,brae,0,GB,1518558600,74,60.4,-1.35,39.2,18.34
306,jumla,0,NP,1518561184,81,29.28,82.18,12.59,2.95
307,geraldton,90,CA,1518559200,67,49.72,-86.95,19.4,18.34
308,townsville,20,AU,1518559200,79,-19.26,146.82,84.2,4.7
309,chapais,90,CA,1518559200,60,49.78,-74.86,10.4,17.22
310,ushumun,0,RU,1518561185,71,52.78,126.54,-2.72,6.87
311,madang,80,PG,1518560774,100,-5.21,145.81,75.28,4.38
312,west wendover,1,US,1518558960,44,40.74,-114.07,39.2,6.93
313,aykhal,36,RU,1518560626,65,65.95,111.51,-9.87,8.19
314,donskoye,90,RU,1518559200,95,45.45,41.98,32.0,2.24
315,castro,0,CL,1518560409,59,-42.48,-73.76,70.06,2.71
316,piedecuesta,40,CO,1518559200,65,6.99,-73.05,77.0,10.29
317,houma,80,CN,1518561187,68,35.63,111.36,22.58,2.06
318,port hedland,40,AU,1518557400,83,-20.31,118.58,84.2,5.82
319,shamary,32,RU,1518561188,62,57.34,58.22,-7.85,2.95
320,kiruna,90,SE,1518558600,92,67.86,20.23,21.2,6.93
321,jucuaran,88,SV,1518561189,72,13.25,-88.25,86.39,18.84
322,khorixas,0,NA,1518560945,57,-20.37,14.96,70.64,4.38
323,srikakulam,8,IN,1518561047,100,18.29,83.89,74.33,10.45
324,high level,90,CA,1518559200,74,58.52,-117.13,30.2,8.05
325,lata,0,IN,1518560657,74,30.78,78.62,28.39,2.71
326,kununurra,80,AU,1518557400,83,-15.77,128.74,78.8,1.12
327,kawalu,56,ID,1518561191,97,-7.38,108.21,67.94,2.39
328,clyde river,1,CA,1518555600,59,70.47,-68.59,-32.81,5.82
329,husavik,68,CA,1518560677,70,50.56,-96.99,20.92,19.26
330,natal,20,BR,1518559200,83,-5.81,-35.21,80.6,8.05
331,kaele,8,CM,1518561192,32,10.11,14.45,78.24,10.78
332,port blair,0,IN,1518560784,100,11.67,92.75,82.21,9.31
333,diffa,0,NE,1518561193,35,13.32,12.61,70.64,10.0
334,itarema,44,BR,1518561193,97,-2.92,-39.92,74.42,3.62
335,klaebu,0,NO,1518558600,62,63.3,10.48,32.0,6.93
336,nchelenge,0,ZM,1518560934,93,-9.35,28.74,65.38,2.93
337,chandur bazar,48,IN,1518561195,95,21.24,77.75,57.54,4.74
338,sungai pelek,75,MY,1518557400,74,2.64,101.72,78.8,5.82
339,alofi,75,NU,1518559200,79,-19.06,-169.92,84.2,5.82
340,banda aceh,44,ID,1518560358,93,5.56,95.32,75.46,2.93
341,komsomolskiy,68,RU,1518560415,84,67.55,63.78,12.82,6.85
342,borovoy,88,RU,1518561197,88,63.23,52.89,18.75,5.75
343,bethel,90,US,1518558780,95,60.79,-161.76,33.8,27.51
344,kabansk,20,RU,1518557400,75,52.06,106.65,-18.41,2.82
345,poum,92,MK,1518561197,99,41.28,20.71,32.97,1.95
346,chuguyevka,0,RU,1518561198,59,44.17,133.87,-2.58,2.28
347,sabang,92,PH,1518560700,100,13.72,123.58,76.0,16.35
348,aripuana,76,BR,1518560637,95,-9.17,-60.63,77.89,2.71
349,baykit,80,RU,1518560651,82,61.68,96.39,2.69,6.96
350,udachnyy,56,RU,1518561199,69,66.42,112.4,-5.91,5.08
351,ust-kuyga,0,RU,1518561200,60,70.0,135.55,-34.08,3.96
352,middle island,1,US,1518560100,100,40.88,-72.94,32.0,8.05
353,tulsipur,0,IN,1518561201,91,27.53,82.41,51.38,7.2
354,dicabisagan,100,PH,1518560780,100,17.08,122.42,70.15,10.65
355,mvangue,76,CM,1518561202,98,2.97,11.5,67.8,2.62
356,tulum,40,MX,1518558300,65,20.21,-87.46,82.4,17.22
357,hofn,68,IS,1518560365,100,64.25,-15.21,35.09,10.54
358,agua dulce,40,MX,1518559260,73,18.14,-94.15,77.0,11.41
359,miraflores,80,CO,1518561203,86,5.2,-73.14,56.24,1.83
360,pochutla,75,MX,1518559080,91,15.74,-96.47,89.6,11.41
361,creel,68,MX,1518561204,55,27.75,-107.63,48.77,4.07
362,san cristobal,75,EC,1518555600,52,-0.39,-78.55,66.2,18.34
363,praya,75,ID,1518559200,94,-8.71,116.27,75.2,5.82
364,yamoto,75,JP,1518559200,100,38.43,141.21,28.4,2.24
365,vrangel,32,RU,1518560681,100,42.73,133.08,21.28,7.63
366,pangnirtung,20,CA,1518559200,58,66.15,-65.72,-40.01,2.24
367,valdivia,0,CL,1518559200,42,-39.81,-73.25,84.2,3.36
368,port lincoln,0,AU,1518560429,91,-34.72,135.86,64.93,17.25
369,strezhevoy,0,RU,1518559200,83,60.73,77.6,-11.21,4.47
370,manggar,44,ID,1518561208,94,-2.88,108.27,77.84,8.77
371,bambanglipuro,88,ID,1518561208,100,-7.95,110.28,71.94,2.95
372,komarno,90,UA,1518559200,92,49.63,23.7,30.2,6.71
373,waddan,0,LY,1518561209,72,29.16,16.14,32.97,3.4
374,zephyrhills,1,US,1518560100,48,28.23,-82.18,84.2,5.82
375,hammerfest,0,NO,1518560400,73,70.66,23.68,26.6,12.75
376,los llanos de aridane,56,ES,1518559200,67,28.66,-17.92,60.8,9.17
377,liancheng,8,CN,1518561211,86,24.05,105.06,39.68,5.19
378,puerto escondido,20,MX,1518558300,70,15.86,-97.07,84.2,10.87
379,misratah,24,LY,1518561212,99,32.38,15.09,54.89,9.78
380,kirakira,0,SB,1518560995,100,-10.46,161.92,82.66,7.74
381,port-gentil,75,GA,1518559200,83,-0.72,8.78,84.2,9.17
382,lundazi,0,ZM,1518561213,89,-12.29,33.17,67.4,10.67
383,lompoc,40,US,1518558960,54,34.64,-120.46,60.8,13.87
384,meru,24,KE,1518561214,84,0.05,37.65,56.37,3.18
385,saint-joseph,75,FR,1518559200,69,43.56,6.97,41.0,2.24
386,ranong,44,TH,1518561214,100,9.96,98.62,76.89,5.41
387,peniche,90,PT,1518559200,100,39.36,-9.38,51.8,4.7
388,leiyang,0,CN,1518561215,78,26.42,112.85,44.9,4.63
389,soyo,64,AO,1518561216,90,-6.13,12.37,78.69,3.51
390,grand gaube,40,MU,1518559200,88,-20.01,57.66,78.8,8.86
391,dingle,92,PH,1518560437,97,11.0,122.67,74.69,15.12
392,tura,80,IN,1518560659,88,25.52,90.21,57.28,4.61
393,tual,48,ID,1518560770,100,-5.67,132.75,80.23,20.71
394,ternova,90,UA,1518559200,85,50.18,36.68,21.2,11.18
395,topchikha,0,RU,1518560832,51,52.82,83.12,-9.82,4.05
396,marienburg,0,DE,1518560400,68,52.12,9.98,30.2,6.93
397,enterprise,90,US,1518559680,82,31.32,-85.86,69.8,8.05
398,mweka,68,CD,1518561219,97,-4.85,21.56,72.75,1.95
399,keningau,75,MY,1518557400,94,5.33,116.16,73.4,5.82
400,yuzhno-kurilsk,64,RU,1518561220,100,44.03,145.86,23.7,20.07
401,camocim,68,BR,1518561220,94,-2.9,-40.84,75.0,4.41
402,udankudi,92,IN,1518561221,92,8.43,78.03,75.77,12.68
403,codrington,0,AU,1518560357,92,-28.95,153.24,75.23,4.16
404,truth or consequences,12,US,1518561221,33,33.13,-107.25,55.92,6.98
405,bathsheba,75,BB,1518559200,94,13.22,-59.52,71.6,26.4
406,ahipara,48,NZ,1518560274,97,-35.17,173.16,71.77,4.5
407,kibaya,68,RW,1518561222,87,-2.2,30.56,57.5,2.51
408,buala,8,SB,1518560991,87,-8.15,159.59,83.02,6.73
409,benguela,48,AO,1518560789,96,-12.58,13.4,80.32,9.64
410,nambutalai,76,IN,1518561223,100,9.72,79.0,78.2,13.35
411,jieshi,44,CN,1518561223,100,22.82,115.83,55.47,8.99
412,beringovskiy,64,RU,1518560246,86,63.05,179.32,29.51,13.33
413,mangrol,0,IN,1518561224,84,25.33,76.51,49.13,3.51
414,rayon,90,FR,1518559200,93,49.17,2.04,33.8,6.93
415,brigantine,1,US,1518558960,69,39.41,-74.36,35.6,8.05
416,bichura,56,RU,1518560683,64,50.59,107.6,-5.73,3.15
417,dunmore town,0,BS,1518561177,97,25.5,-76.65,75.9,18.05
418,cabo san lucas,90,MX,1518554880,41,22.89,-109.91,82.4,4.7
419,fairbanks,90,US,1518559080,86,64.84,-147.72,28.4,13.87
420,bria,0,CF,1518561227,89,6.54,21.99,72.3,3.74
421,pitsunda,75,GE,1518559200,93,43.16,40.34,42.8,3.18
422,mvomero,12,TZ,1518561228,93,-6.3,37.45,67.4,3.29
423,broome,56,GB,1518558960,80,52.47,1.45,39.2,8.05
424,carmelo,0,UY,1518559200,88,-34.0,-58.28,77.0,4.7
425,esperance,20,TT,1518559200,69,10.24,-61.45,78.8,8.05
426,roald,40,NO,1518560400,52,62.58,6.12,41.0,10.29
427,dothan,90,US,1518559680,93,31.22,-85.39,69.8,12.75
428,yamethin,20,MM,1518561230,86,20.43,96.14,62.09,2.62
429,hambantota,8,LK,1518560431,100,6.12,81.12,77.8,12.21
430,teya,48,MX,1518561230,64,21.05,-89.07,80.67,7.43
431,ozuluama,88,MX,1518561231,83,21.12,-98.35,66.0,3.51
432,havre-saint-pierre,40,CA,1518559200,70,50.23,-63.6,-0.41,11.41
433,ola,40,RU,1518559200,55,59.58,151.3,8.6,17.9
434,brookhaven,1,US,1518558960,100,40.78,-72.92,32.0,8.05
435,rio gallegos,75,AR,1518555600,62,-51.62,-69.22,75.2,26.4
436,punta alta,0,AR,1518559200,39,-27.46,-55.82,84.2,8.05
437,sangerhausen,0,DE,1518560400,73,51.47,11.3,26.6,6.93
438,tevaitoa,100,PF,1518561032,100,-16.78,-151.5,79.1,30.36
439,manacapuru,80,BR,1518561234,82,-3.3,-60.62,79.91,3.62
440,salalah,0,OM,1518555000,64,17.01,54.1,69.8,4.7
441,san andres,92,PH,1518561235,100,13.32,122.68,77.97,19.95
442,jinchang,64,CN,1518561235,71,38.52,102.19,7.82,3.96
443,cajaruro,12,PE,1518561236,78,-5.74,-78.43,66.9,1.16
444,soe,88,EE,1518558600,100,57.91,26.05,21.2,2.24
445,roccastrada,0,IT,1518558900,79,43.01,11.17,32.0,5.82
446,talara,0,PE,1518559200,61,-4.58,-81.27,82.4,17.22
447,cabedelo,40,BR,1518555600,83,-6.97,-34.84,78.8,9.17
448,mandeville,20,JM,1518559200,61,18.04,-77.51,82.4,18.34
449,sola,75,FI,1518558600,92,62.78,29.36,28.4,8.05
450,zahesi,75,GE,1518559200,93,41.83,44.76,39.2,8.05
451,sanok,90,PL,1518561000,97,49.56,22.21,32.0,6.93
452,sao felix do xingu,64,BR,1518560612,90,-6.64,-51.99,77.44,2.37
453,ati,8,TD,1518561239,25,13.21,18.34,77.34,11.45
454,keflavik,20,IS,1518559200,92,64.0,-22.56,26.6,11.41
455,mayen,0,DE,1518560400,68,50.33,7.22,32.0,6.93
456,panaba,0,MX,1518561241,67,21.28,-88.27,78.69,7.65
457,pimentel,88,BR,1518561241,88,-3.7,-45.5,76.4,5.64
458,pokaran,0,IN,1518561242,81,26.93,71.92,48.99,3.85
459,aksarka,80,RU,1518560568,82,66.56,67.8,-1.54,10.76
460,gushikawa,20,JP,1518559200,86,26.35,127.87,53.6,6.76
461,thinadhoo,64,MV,1518561091,100,0.53,72.93,82.74,8.32
462,spring hill,75,US,1518560100,65,28.46,-82.54,86.0,8.05
463,terekli-mekteb,92,RU,1518561244,94,44.16,45.87,25.82,4.41
464,porosozero,88,RU,1518560963,88,62.72,32.71,23.21,4.94
465,pasighat,44,IN,1518561244,72,28.06,95.33,51.24,2.06
466,hasaki,20,JP,1518557400,85,35.73,140.83,26.6,2.24
467,gatesville,90,US,1518559080,87,31.44,-97.74,46.4,4.97
468,morecambe,0,GB,1518561245,90,54.07,-2.87,35.94,10.0
469,makakilo city,90,US,1518559860,94,21.35,-158.09,77.0,10.29
470,lewistown,40,US,1518560100,74,40.39,-90.15,39.2,9.17
471,chumikan,0,RU,1518561246,47,54.72,135.31,-2.31,12.46
472,souillac,40,FR,1518559200,86,45.6,-0.6,37.4,4.7
473,martinsburg,90,US,1518558900,47,39.46,-77.96,41.0,5.82
474,huarmey,12,PE,1518560585,60,-10.07,-78.15,76.45,3.49
475,solikamsk,56,RU,1518561248,80,59.65,56.78,1.79,3.18
476,kinshasa,75,CD,1518559200,94,-4.32,15.31,71.6,3.36
477,havelock,90,US,1518560520,87,34.88,-76.9,46.4,11.41
478,bilma,0,NE,1518560772,49,18.69,12.92,61.15,3.71
479,salym,68,RU,1518561027,71,60.06,71.48,-5.6,2.73
480,iraray,92,PH,1518561249,100,8.99,118.05,74.87,13.69
481,boca del monte,40,GT,1518559200,49,14.55,-90.52,73.4,16.11
482,manokwari,68,ID,1518561086,100,-0.87,134.08,79.95,6.76
483,pelotas,44,BR,1518561251,92,-31.77,-52.34,69.02,11.01
484,hay river,75,CA,1518559800,70,60.82,-115.79,-2.21,8.05
485,ulagan,0,RU,1518561252,48,50.63,87.96,-13.38,2.73
486,tahe,0,CN,1518561252,60,52.34,124.71,0.3,6.87
487,miyako,20,JP,1518559200,69,33.63,130.94,35.6,9.17
488,lokosovo,32,RU,1518561253,76,61.13,74.84,-11.36,2.95
489,teguise,20,ES,1518559200,82,29.06,-13.56,57.2,3.36
490,castro daire,75,PT,1518559200,87,40.9,-7.93,53.6,11.41
491,lowestoft,0,GB,1518560400,86,52.48,1.75,37.4,8.05
492,bacolod,68,PH,1518561012,95,10.68,122.95,76.89,11.34
493,dawei,8,MM,1518561255,76,14.07,98.19,68.7,2.17
494,maldonado,0,UY,1518559200,56,-34.91,-54.96,68.0,10.29
495,xichang,0,CN,1518561256,29,27.88,102.25,45.53,2.95
496,saint-francois,90,FR,1518559200,97,46.42,3.91,32.0,5.82
497,alta floresta,24,BR,1518560515,73,-9.87,-56.08,85.18,1.59
498,krotovka,56,RU,1518561257,77,53.29,51.17,5.12,3.51
499,iralaya,100,HN,1518561030,87,15.0,-83.23,77.75,14.25
500,bodden town,20,KY,1518559200,69,19.28,-81.25,82.4,17.22
501,kindu,68,CD,1518561259,99,-2.95,25.92,70.01,2.73
502,kumbakonam,8,IN,1518561259,96,10.96,79.38,65.69,4.29
503,guarapari,20,BR,1518559200,83,-20.67,-40.5,80.6,11.41
504,pisco,0,PE,1518555600,65,-13.71,-76.2,80.6,23.04
505,dauphin,1,CA,1518559200,57,51.15,-100.04,23.0,19.46
506,jandiala,48,IN,1518558900,76,31.56,75.03,50.0,8.05
507,kaseda,75,JP,1518559200,92,31.42,130.32,30.2,3.36
508,kasempa,32,ZM,1518561263,95,-13.46,25.83,61.55,2.73
509,sept-iles,20,CA,1518559200,49,50.2,-66.38,-0.41,2.24
510,tazovskiy,76,RU,1518560417,72,67.47,78.7,-2.04,9.19
511,cidreira,0,BR,1518560347,68,-30.17,-50.22,72.71,9.64
512,yumen,88,CN,1518561264,91,40.29,97.04,19.07,10.78
513,mundra,8,IN,1518561265,59,22.84,69.73,68.03,13.35
514,frolovo,92,RU,1518561265,86,49.76,43.65,13.85,11.45
515,kollo,0,NE,1518559200,9,13.34,2.32,77.0,6.93
516,mercedes,0,UY,1518561266,78,-33.25,-58.03,64.65,2.39
517,ormara,20,PK,1518561267,95,25.21,64.64,64.47,5.64
518,liberty,1,US,1518560100,64,39.64,-84.93,44.6,5.82
519,taguatinga,40,BR,1518559200,47,-15.83,-48.06,78.8,11.41
520,vardo,90,US,1518558900,47,39.62,-77.74,41.0,5.82
521,shawinigan,32,CA,1518561142,69,46.54,-72.75,13.89,7.54
522,angoche,76,MZ,1518561270,100,-16.23,39.91,81.39,5.41
523,spas-demensk,76,RU,1518561270,81,54.41,34.03,13.35,7.99
524,kieta,48,PG,1518561013,100,-6.22,155.63,79.32,4.52
525,kyabram,20,AU,1518561271,71,-36.31,145.05,69.29,19.17
526,freeport,75,BS,1518559200,74,26.54,-78.7,78.8,11.41
527,kibala,0,TD,1518559200,54,9.11,18.35,82.4,6.4
528,mosquera,40,CO,1518559200,55,4.71,-74.23,64.4,13.87
529,kaa-khem,48,RU,1518561272,52,51.7,94.56,-11.63,1.72
530,dragor,44,BG,1518561000,100,42.23,24.3,33.8,2.24
531,mulege,68,MX,1518561274,42,26.88,-111.98,70.77,3.4
532,ilam,90,IR,1518559200,100,33.64,46.42,42.8,16.11
533,kontagora,80,NG,1518561274,56,10.4,5.47,79.64,5.19
534,naze,40,NG,1518555600,83,5.43,7.07,80.6,0.13
535,comodoro rivadavia,0,AR,1518555600,18,-45.87,-67.48,89.6,19.46
536,mwinilunga,48,ZM,1518561275,95,-11.73,24.43,60.83,2.39
537,kielce,80,PL,1518561276,86,50.87,20.63,24.2,4.97
538,gemena,56,CD,1518561276,92,3.25,19.78,71.4,2.06
539,christchurch,92,NZ,1518559200,82,-43.53,172.64,64.4,17.22
540,nigran,75,ES,1518557400,93,42.14,-8.81,51.8,10.29
541,kichera,48,RU,1518561278,69,55.93,110.1,-11.58,2.73
542,vysokogornyy,24,RU,1518561278,54,50.1,139.13,-6.5,6.08
543,charlestown,1,US,1518560100,100,41.38,-71.64,32.0,6.93
544,guider,0,CM,1518561280,39,9.93,13.94,71.85,7.09
545,bayan,0,MN,1518561280,44,47.25,107.54,-18.06,5.41
546,boma,0,NG,1518561281,38,11.23,4.46,74.78,9.1
547,canakkale,75,TR,1518558600,71,40.15,26.41,51.8,6.93
548,ayame,20,CI,1518561282,98,5.61,-3.16,77.39,4.74
549,mangalam,40,IN,1518561000,88,12.6,80.07,77.0,4.7
550,paamiut,44,GL,1518560789,100,61.99,-49.67,13.04,41.85
551,opuwo,0,NA,1518561073,45,-18.06,13.84,69.24,5.97
552,tateyama,75,JP,1518559200,69,36.66,137.31,33.8,13.87
553,shimoda,0,JP,1518561283,100,34.7,138.93,45.84,11.01
554,pavlohrad,90,UA,1518559200,92,48.53,35.87,23.0,3.96
555,labuhan,12,ID,1518561284,81,-2.54,115.51,77.07,2.73
556,boa vista,100,BR,1518561286,43,2.82,-60.67,88.55,12.8
557,warwick,75,US,1518558960,58,41.7,-71.42,33.8,11.41
558,linhai,0,CN,1518561287,81,28.86,121.14,39.27,3.4
